[
  {"icao":"VABB","name":"Chhatrapati Shivaji Maharaj International","city":"Mumbai","country":"India","lat":19.0896,"lon":72.8656,"elev":37,"tz":"Asia/Kolkata","longestRunway":11312,"freq":118.9},
  {"icao":"VIDP","name":"Indira Gandhi International","city":"Delhi","country":"India","lat":28.5562,"lon":77.1,"elev":777,"tz":"Asia/Kolkata","longestRunway":14534,"freq":118.5},
  {"icao":"VOBL","name":"Kempegowda International","city":"Bangalore","country":"India","lat":13.1989,"lon":77.7056,"elev":3000,"tz":"Asia/Kolkata","longestRunway":13123,"freq":118.2},
  {"icao":"VOMM","name":"Chennai International","city":"Chennai","country":"India","lat":12.9941,"lon":80.1709,"elev":52,"tz":"Asia/Kolkata","longestRunway":12000,"freq":118.7},
  {"icao":"VECC","name":"Netaji Subhas Chandra Bose International","city":"Kolkata","country":"India","lat":22.6547,"lon":88.4467,"elev":16,"tz":"Asia/Kolkata","longestRunway":11900,"freq":118.3},
  {"icao":"VEGT","name":"Lokpriya Gopinath Bordoloi International","city":"Guwahati","country":"India","lat":26.1061,"lon":91.5859,"elev":162,"tz":"Asia/Kolkata","longestRunway":10000,"freq":118.2},
  {"icao":"VEPT","name":"Lok Nayak Jayaprakash Narayan International","city":"Patna","country":"India","lat":25.5913,"lon":85.0877,"elev":170,"tz":"Asia/Kolkata","longestRunway":8700,"freq":118.5},
  {"icao":"VANP","name":"Dr. Babasaheb Ambedkar International","city":"Nagpur","country":"India","lat":21.0892,"lon":79.0503,"elev":1024,"tz":"Asia/Kolkata","longestRunway":10500,"freq":118.7},
  {"icao":"VOTV","name":"Thiruvananthapuram International","city":"Thiruvananthapuram","country":"India","lat":8.4822,"lon":76.9198,"elev":15,"tz":"Asia/Kolkata","longestRunway":11000,"freq":118.2},
  {"icao":"VOCL","name":"Calicut International","city":"Kozhikode","country":"India","lat":11.1368,"lon":75.9553,"elev":340,"tz":"Asia/Kolkata","longestRunway":9380,"freq":118.3},
  {"icao":"VOCI","name":"Cochin International","city":"Kochi","country":"India","lat":10.152,"lon":76.4019,"elev":22,"tz":"Asia/Kolkata","longestRunway":11159,"freq":118.2},
  {"icao":"VOHS","name":"Rajiv Gandhi International","city":"Hyderabad","country":"India","lat":17.2313,"lon":78.4299,"elev":2024,"tz":"Asia/Kolkata","longestRunway":13123,"freq":118.5},
  {"icao":"VAAH","name":"Sardar Vallabhbhai Patel International","city":"Ahmedabad","country":"India","lat":23.0772,"lon":72.6347,"elev":189,"tz":"Asia/Kolkata","longestRunway":11480,"freq":118.1},
  {"icao":"VAJB","name":"Jabalpur Airport","city":"Jabalpur","country":"India","lat":23.1778,"lon":80.052,"elev":1356,"tz":"Asia/Kolkata","longestRunway":10100,"freq":118.5},
  {"icao":"VIJP","name":"Jaipur International","city":"Jaipur","country":"India","lat":26.8242,"lon":75.8122,"elev":1263,"tz":"Asia/Kolkata","longestRunway":11000,"freq":118.3},
  {"icao":"VILK","name":"Chaudhary Charan Singh International","city":"Lucknow","country":"India","lat":26.7611,"lon":80.8847,"elev":410,"tz":"Asia/Kolkata","longestRunway":9180,"freq":118.7},
  {"icao":"VIBN","name":"Lal Bahadur Shastri International","city":"Varanasi","country":"India","lat":25.4519,"lon":82.8594,"elev":259,"tz":"Asia/Kolkata","longestRunway":11145,"freq":118.5},
  {"icao":"VISM","name":"Shimla Airport","city":"Shimla","country":"India","lat":31.0818,"lon":77.0678,"elev":5070,"tz":"Asia/Kolkata","longestRunway":4000,"freq":118.2},
  {"icao":"VIAR","name":"Sri Guru Ram Dass Jee International","city":"Amritsar","country":"India","lat":31.7096,"lon":74.7973,"elev":755,"tz":"Asia/Kolkata","longestRunway":12000,"freq":118.2},
  {"icao":"VASR","name":"Surat International","city":"Surat","country":"India","lat":21.1168,"lon":72.717,"elev":16,"tz":"Asia/Kolkata","longestRunway":9020,"freq":118.5},
  {"icao":"VIGG","name":"Gaggal Airport","city":"Kangra","country":"India","lat":32.165,"lon":76.2631,"elev":2559,"tz":"Asia/Kolkata","longestRunway":4500,"freq":118.4},
  {"icao":"VQPR","name":"Paro International","city":"Paro","country":"Bhutan","lat":27.4032,"lon":89.4246,"elev":7332,"tz":"Asia/Thimphu","longestRunway":7400,"freq":118.2},
  {"icao":"VNKT","name":"Tribhuvan International","city":"Kathmandu","country":"Nepal","lat":27.6966,"lon":85.3591,"elev":4386,"tz":"Asia/Kathmandu","longestRunway":10000,"freq":118.1},
  {"icao":"VCBI","name":"Bandaranaike International","city":"Colombo","country":"Sri Lanka","lat":7.1742,"lon":79.8842,"elev":30,"tz":"Asia/Colombo","longestRunway":11000,"freq":118.1},
  {"icao":"OMDB","name":"Dubai International","city":"Dubai","country":"UAE","lat":25.2538,"lon":55.3656,"elev":62,"tz":"Asia/Dubai","longestRunway":14157,"freq":118.5},
  {"icao":"OMAA","name":"Zayed International","city":"Abu Dhabi","country":"UAE","lat":24.4539,"lon":54.3773,"elev":88,"tz":"Asia/Dubai","longestRunway":13400,"freq":118.8},
  {"icao":"OMDW","name":"Al Maktoum International","city":"Dubai World Central","country":"UAE","lat":24.8964,"lon":55.1753,"elev":170,"tz":"Asia/Dubai","longestRunway":16000,"freq":118.6},
  {"icao":"OMSJ","name":"Sharjah International","city":"Sharjah","country":"UAE","lat":25.3286,"lon":55.5172,"elev":111,"tz":"Asia/Dubai","longestRunway":12460,"freq":118.2},
  {"icao":"OMRK","name":"Ras Al Khaimah International","city":"Ras Al Khaimah","country":"UAE","lat":25.6135,"lon":55.9388,"elev":102,"tz":"Asia/Dubai","longestRunway":11480,"freq":118.7},
  {"icao":"OOMS","name":"Muscat International","city":"Muscat","country":"Oman","lat":23.5933,"lon":58.2844,"elev":48,"tz":"Asia/Muscat","longestRunway":13142,"freq":118.5},
  {"icao":"OOTH","name":"Duqm International","city":"Duqm","country":"Oman","lat":19.5019,"lon":57.6342,"elev":360,"tz":"Asia/Muscat","longestRunway":13123,"freq":118.3},
  {"icao":"OOKB","name":"Khasab Air Base","city":"Khasab","country":"Oman","lat":26.1708,"lon":56.2408,"elev":100,"tz":"Asia/Muscat","longestRunway":8200,"freq":118.2},
  {"icao":"OTBD","name":"Doha International","city":"Doha","country":"Qatar","lat":25.2606,"lon":51.565,"elev":33,"tz":"Asia/Qatar","longestRunway":15000,"freq":118.6},
  {"icao":"OTHH","name":"Hamad International","city":"Doha","country":"Qatar","lat":25.2736,"lon":51.6081,"elev":16,"tz":"Asia/Qatar","longestRunway":16724,"freq":118.5},
  {"icao":"OBBI","name":"Bahrain International","city":"Bahrain","country":"Bahrain","lat":26.2708,"lon":50.6336,"elev":6,"tz":"Asia/Bahrain","longestRunway":13275,"freq":118.5},
  {"icao":"OEJN","name":"King Abdulaziz International","city":"Jeddah","country":"Saudi Arabia","lat":21.6796,"lon":39.1565,"elev":48,"tz":"Asia/Riyadh","longestRunway":13123,"freq":118.1},
  {"icao":"OERK","name":"King Khalid International","city":"Riyadh","country":"Saudi Arabia","lat":24.9576,"lon":46.6988,"elev":2048,"tz":"Asia/Riyadh","longestRunway":13955,"freq":118.4},
  {"icao":"OEDF","name":"King Fahd International","city":"Dammam","country":"Saudi Arabia","lat":26.4712,"lon":49.7979,"elev":72,"tz":"Asia/Riyadh","longestRunway":13123,"freq":118.7},
  {"icao":"OEMA","name":"Prince Mohammad Bin Abdulaziz International","city":"Medina","country":"Saudi Arabia","lat":24.5534,"lon":39.705,"elev":2151,"tz":"Asia/Riyadh","longestRunway":13123,"freq":118.2},
  {"icao":"OKBK","name":"Kuwait International","city":"Kuwait","country":"Kuwait","lat":29.2266,"lon":47.9792,"elev":206,"tz":"Asia/Kuwait","longestRunway":11482,"freq":118.3},
  {"icao":"ORBI","name":"Baghdad International","city":"Baghdad","country":"Iraq","lat":33.2625,"lon":44.2342,"elev":114,"tz":"Asia/Baghdad","longestRunway":13123,"freq":118.1},
  {"icao":"OJAI","name":"Queen Alia International","city":"Amman","country":"Jordan","lat":31.7225,"lon":35.9933,"elev":2395,"tz":"Asia/Amman","longestRunway":13123,"freq":118.5},
  {"icao":"LLBG","name":"Ben Gurion International","city":"Tel Aviv","country":"Israel","lat":32.0114,"lon":34.8867,"elev":135,"tz":"Asia/Jerusalem","longestRunway":13123,"freq":118.1},
  {"icao":"HECA","name":"Cairo International","city":"Cairo","country":"Egypt","lat":30.1219,"lon":31.4056,"elev":320,"tz":"Africa/Cairo","longestRunway":13123,"freq":118.5},
  {"icao":"HEGN","name":"Hurghada International","city":"Hurghada","country":"Egypt","lat":27.1783,"lon":33.7994,"elev":52,"tz":"Africa/Cairo","longestRunway":13123,"freq":118.2},
  {"icao":"LTBA","name":"Istanbul Ataturk","city":"Istanbul","country":"Turkey","lat":40.9769,"lon":28.8146,"elev":164,"tz":"Europe/Istanbul","longestRunway":13123,"freq":118.1},
  {"icao":"LTFM","name":"Istanbul Airport","city":"Istanbul","country":"Turkey","lat":41.275,"lon":28.7519,"elev":325,"tz":"Europe/Istanbul","longestRunway":13451,"freq":118.4},
  {"icao":"LTAI","name":"Antalya International","city":"Antalya","country":"Turkey","lat":36.8988,"lon":30.801,"elev":175,"tz":"Europe/Istanbul","longestRunway":11154,"freq":118.2},
  {"icao":"LGAV","name":"Athens Eleftherios Venizelos","city":"Athens","country":"Greece","lat":37.9364,"lon":23.9472,"elev":308,"tz":"Europe/Athens","longestRunway":13123,"freq":118.3},
  {"icao":"LIRF","name":"Leonardo da Vinci International","city":"Rome","country":"Italy","lat":41.8045,"lon":12.2508,"elev":14,"tz":"Europe/Rome","longestRunway":12804,"freq":118.1},
  {"icao":"LPPT","name":"Humberto Delgado Airport","city":"Lisbon","country":"Portugal","lat":38.775,"lon":-9.1356,"elev":377,"tz":"Europe/Lisbon","longestRunway":12468,"freq":118.1},
  {"icao":"EGLL","name":"London Heathrow","city":"London","country":"United Kingdom","lat":51.4700,"lon":-0.4543,"elev":84,"tz":"Europe/London","longestRunway":12802,"freq":118.5},
  {"icao":"EGKK","name":"London Gatwick","city":"London","country":"United Kingdom","lat":51.1481,"lon":-0.1903,"elev":203,"tz":"Europe/London","longestRunway":10908,"freq":118.2},
  {"icao":"LFPG","name":"Charles de Gaulle International","city":"Paris","country":"France","lat":49.0097,"lon":2.5478,"elev":387,"tz":"Europe/Paris","longestRunway":13829,"freq":118.3},
  {"icao":"EDDF","name":"Frankfurt Airport","city":"Frankfurt","country":"Germany","lat":50.0264,"lon":8.5431,"elev":364,"tz":"Europe/Berlin","longestRunway":13123,"freq":118.5},
  {"icao":"EDDM","name":"Munich Airport","city":"Munich","country":"Germany","lat":48.3538,"lon":11.7759,"elev":1487,"tz":"Europe/Berlin","longestRunway":13123,"freq":118.2},
  {"icao":"EHAM","name":"Amsterdam Schiphol","city":"Amsterdam","country":"Netherlands","lat":52.3081,"lon":4.7642,"elev":-11,"tz":"Europe/Amsterdam","longestRunway":12467,"freq":118.4},
  {"icao":"LOWW","name":"Vienna International","city":"Vienna","country":"Austria","lat":48.1103,"lon":16.5697,"elev":600,"tz":"Europe/Vienna","longestRunway":11802,"freq":118.5},
  {"icao":"LSZH","name":"Zurich Airport","city":"Zurich","country":"Switzerland","lat":47.4582,"lon":8.5481,"elev":1416,"tz":"Europe/Zurich","longestRunway":13123,"freq":118.3},
  {"icao":"LEMD","name":"Adolfo Suarez Madrid-Barajas","city":"Madrid","country":"Spain","lat":40.4719,"lon":-3.5626,"elev":1994,"tz":"Europe/Madrid","longestRunway":14396,"freq":118.1},
  {"icao":"LEBL","name":"Barcelona-El Prat","city":"Barcelona","country":"Spain","lat":41.2971,"lon":2.0785,"elev":14,"tz":"Europe/Madrid","longestRunway":13000,"freq":118.6},
  {"icao":"UUDD","name":"Domodedovo International","city":"Moscow","country":"Russia","lat":55.4102,"lon":37.9025,"elev":588,"tz":"Europe/Moscow","longestRunway":12464,"freq":118.2},
  {"icao":"ULLI","name":"Pulkovo Airport","city":"Saint Petersburg","country":"Russia","lat":59.8003,"lon":30.2625,"elev":79,"tz":"Europe/Moscow","longestRunway":12402,"freq":118.5},
  {"icao":"UAAA","name":"Almaty International","city":"Almaty","country":"Kazakhstan","lat":43.3521,"lon":77.0425,"elev":2260,"tz":"Asia/Almaty","longestRunway":14436,"freq":118.2},
  {"icao":"ZSPD","name":"Shanghai Pudong International","city":"Shanghai","country":"China","lat":31.1434,"lon":121.8053,"elev":13,"tz":"Asia/Shanghai","longestRunway":13123,"freq":118.3},
  {"icao":"ZSSS","name":"Shanghai Hongqiao International","city":"Shanghai","country":"China","lat":31.1979,"lon":121.3363,"elev":10,"tz":"Asia/Shanghai","longestRunway":11155,"freq":118.1},
  {"icao":"ZBTJ","name":"Tianjin Binhai International","city":"Tianjin","country":"China","lat":39.1244,"lon":117.3462,"elev":10,"tz":"Asia/Shanghai","longestRunway":11811,"freq":118.2},
  {"icao":"ZBAA","name":"Beijing Capital International","city":"Beijing","country":"China","lat":40.0799,"lon":116.6031,"elev":116,"tz":"Asia/Shanghai","longestRunway":12463,"freq":118.5},
  {"icao":"ZHHH","name":"Wuhan Tianhe International","city":"Wuhan","country":"China","lat":30.7838,"lon":114.2082,"elev":113,"tz":"Asia/Shanghai","longestRunway":11811,"freq":118.2},
  {"icao":"ZGHA","name":"Changsha Huanghua International","city":"Changsha","country":"China","lat":28.1891,"lon":113.2199,"elev":217,"tz":"Asia/Shanghai","longestRunway":10500,"freq":118.3},
  {"icao":"ZGGG","name":"Guangzhou Baiyun International","city":"Guangzhou","country":"China","lat":23.3925,"lon":113.2989,"elev":50,"tz":"Asia/Shanghai","longestRunway":12467,"freq":118.3},
  {"icao":"ZGSZ","name":"Shenzhen Bao'an International","city":"Shenzhen","country":"China","lat":22.6394,"lon":113.8147,"elev":13,"tz":"Asia/Shanghai","longestRunway":12467,"freq":118.5},
  {"icao":"VHHH","name":"Hong Kong International","city":"Hong Kong","country":"China","lat":22.3080,"lon":113.9185,"elev":19,"tz":"Asia/Hong_Kong","longestRunway":12467,"freq":118.4},
  {"icao":"RCTP","name":"Taiwan Taoyuan International","city":"Taipei","country":"Taiwan","lat":25.0764,"lon":121.2239,"elev":106,"tz":"Asia/Taipei","longestRunway":12467,"freq":118.1},
  {"icao":"RPLL","name":"Ninoy Aquino International","city":"Manila","country":"Philippines","lat":14.5087,"lon":121.0195,"elev":75,"tz":"Asia/Manila","longestRunway":12467,"freq":118.3},
  {"icao":"WSSS","name":"Singapore Changi","city":"Singapore","country":"Singapore","lat":1.3592,"lon":103.9894,"elev":22,"tz":"Asia/Singapore","longestRunway":13123,"freq":118.5},
  {"icao":"WMKK","name":"Kuala Lumpur International","city":"Kuala Lumpur","country":"Malaysia","lat":2.7431,"lon":101.6981,"elev":69,"tz":"Asia/Kuala_Lumpur","longestRunway":13123,"freq":118.2},
  {"icao":"WIII","name":"Soekarno-Hatta International","city":"Jakarta","country":"Indonesia","lat":-6.1256,"lon":106.6558,"elev":32,"tz":"Asia/Jakarta","longestRunway":13123,"freq":118.4},
  {"icao":"VTBS","name":"Suvarnabhumi Airport","city":"Bangkok","country":"Thailand","lat":13.6900,"lon":100.7501,"elev":9,"tz":"Asia/Bangkok","longestRunway":13123,"freq":118.5},
  {"icao":"VTBD","name":"Don Mueang International","city":"Bangkok","country":"Thailand","lat":13.9125,"lon":100.6067,"elev":9,"tz":"Asia/Bangkok","longestRunway":12139,"freq":118.2},
  {"icao":"VVTS","name":"Tan Son Nhat International","city":"Ho Chi Minh City","country":"Vietnam","lat":10.8188,"lon":106.6520,"elev":33,"tz":"Asia/Ho_Chi_Minh","longestRunway":12467,"freq":118.5},
  {"icao":"VVNB","name":"Noi Bai International","city":"Hanoi","country":"Vietnam","lat":21.2211,"lon":105.8072,"elev":39,"tz":"Asia/Ho_Chi_Minh","longestRunway":12467,"freq":118.2},
  {"icao":"VDPP","name":"Phnom Penh International","city":"Phnom Penh","country":"Cambodia","lat":11.5466,"lon":104.8441,"elev":40,"tz":"Asia/Phnom_Penh","longestRunway":9800,"freq":118.2},
  {"icao":"VYBG","name":"Mandalay International","city":"Mandalay","country":"Myanmar","lat":21.7022,"lon":95.9780,"elev":299,"tz":"Asia/Yangon","longestRunway":14000,"freq":118.2},
  {"icao":"VYYY","name":"Yangon International","city":"Yangon","country":"Myanmar","lat":16.9073,"lon":96.1332,"elev":109,"tz":"Asia/Yangon","longestRunway":11200,"freq":118.5},
  {"icao":"VGHS","name":"Shahjalal International","city":"Dhaka","country":"Bangladesh","lat":23.8433,"lon":90.3978,"elev":30,"tz":"Asia/Dhaka","longestRunway":10500,"freq":118.2},
  {"icao":"OPLA","name":"Allama Iqbal International","city":"Lahore","country":"Pakistan","lat":31.5216,"lon":74.4032,"elev":712,"tz":"Asia/Karachi","longestRunway":11000,"freq":118.3},
  {"icao":"OPKC","name":"Jinnah International","city":"Karachi","country":"Pakistan","lat":24.9064,"lon":67.1608,"elev":100,"tz":"Asia/Karachi","longestRunway":10500,"freq":118.5},
  {"icao":"OPIS","name":"Islamabad International","city":"Islamabad","country":"Pakistan","lat":33.5499,"lon":72.8307,"elev":1713,"tz":"Asia/Karachi","longestRunway":13123,"freq":118.7},
  {"icao":"OAKB","name":"Kabul International","city":"Kabul","country":"Afghanistan","lat":34.5583,"lon":69.2133,"elev":5892,"tz":"Asia/Kabul","longestRunway":11480,"freq":118.1},
  {"icao":"UTAA","name":"Ashgabat International","city":"Ashgabat","country":"Turkmenistan","lat":37.9868,"lon":58.361,"elev":689,"tz":"Asia/Ashgabat","longestRunway":12467,"freq":118.2},
  {"icao":"OIII","name":"Tehran Imam Khomeini International","city":"Tehran","country":"Iran","lat":35.4162,"lon":51.1522,"elev":3305,"tz":"Asia/Tehran","longestRunway":13888,"freq":118.1},
  {"icao":"OIMM","name":"Mashhad International","city":"Mashhad","country":"Iran","lat":36.2269,"lon":59.642,"elev":3263,"tz":"Asia/Tehran","longestRunway":12797,"freq":118.3},
  {"icao":"OISS","name":"Shiraz International","city":"Shiraz","country":"Iran","lat":29.5392,"lon":52.5894,"elev":4927,"tz":"Asia/Tehran","longestRunway":14000,"freq":118.2},
  {"icao":"KJFK","name":"John F Kennedy International","city":"New York","country":"United States","lat":40.6413,"lon":-73.7781,"elev":13,"tz":"America/New_York","longestRunway":14572,"freq":118.9},
  {"icao":"KLAX","name":"Los Angeles International","city":"Los Angeles","country":"United States","lat":33.9416,"lon":-118.4085,"elev":125,"tz":"America/Los_Angeles","longestRunway":12091,"freq":118.0},
  {"icao":"KORD","name":"O'Hare International","city":"Chicago","country":"United States","lat":41.9742,"lon":-87.9073,"elev":668,"tz":"America/Chicago","longestRunway":13000,"freq":118.5},
  {"icao":"KATL","name":"Hartsfield-Jackson Atlanta International","city":"Atlanta","country":"United States","lat":33.6407,"lon":-84.4277,"elev":1026,"tz":"America/New_York","longestRunway":12390,"freq":119.1},
  {"icao":"CYYZ","name":"Toronto Pearson International","city":"Toronto","country":"Canada","lat":43.6772,"lon":-79.6306,"elev":569,"tz":"America/Toronto","longestRunway":12000,"freq":118.5},
  {"icao":"SBGR","name":"Guarulhos International","city":"Sao Paulo","country":"Brazil","lat":-23.4356,"lon":-46.4731,"elev":2459,"tz":"America/Sao_Paulo","longestRunway":12467,"freq":118.3},
  {"icao":"FAOR","name":"O.R. Tambo International","city":"Johannesburg","country":"South Africa","lat":-26.1392,"lon":28.246,"elev":5558,"tz":"Africa/Johannesburg","longestRunway":14512,"freq":118.1},
  {"icao":"DNMM","name":"Murtala Muhammed International","city":"Lagos","country":"Nigeria","lat":6.5774,"lon":3.3211,"elev":135,"tz":"Africa/Lagos","longestRunway":12801,"freq":118.3},
  {"icao":"HKJK","name":"Jomo Kenyatta International","city":"Nairobi","country":"Kenya","lat":-1.3192,"lon":36.9275,"elev":5330,"tz":"Africa/Nairobi","longestRunway":13500,"freq":118.5},
  {"icao":"HAAB","name":"Bole International","city":"Addis Ababa","country":"Ethiopia","lat":8.9778,"lon":38.7994,"elev":7626,"tz":"Africa/Addis_Ababa","longestRunway":12467,"freq":118.3},
  {"icao":"FIMP","name":"Sir Seewoosagur Ramgoolam International","city":"Mauritius","country":"Mauritius","lat":-20.4302,"lon":57.6767,"elev":187,"tz":"Indian/Mauritius","longestRunway":10050,"freq":118.2},
  {"icao":"FMEE","name":"Roland Garros Airport","city":"Saint-Denis","country":"Reunion","lat":-20.8872,"lon":55.5103,"elev":66,"tz":"Indian/Reunion","longestRunway":10499,"freq":118.2},
  {"icao":"YSSY","name":"Sydney Kingsford Smith","city":"Sydney","country":"Australia","lat":-33.9461,"lon":151.1772,"elev":21,"tz":"Australia/Sydney","longestRunway":13000,"freq":120.5},
  {"icao":"YMML","name":"Melbourne Airport","city":"Melbourne","country":"Australia","lat":-37.6733,"lon":144.8433,"elev":434,"tz":"Australia/Melbourne","longestRunway":12000,"freq":118.7},
  {"icao":"YBBN","name":"Brisbane Airport","city":"Brisbane","country":"Australia","lat":-27.3842,"lon":153.1175,"elev":13,"tz":"Australia/Brisbane","longestRunway":11811,"freq":120.5},
  {"icao":"OMAD","name":"Al Ain International","city":"Al Ain","country":"UAE","lat":24.2617,"lon":55.6092,"elev":869,"tz":"Asia/Dubai","longestRunway":13123,"freq":118.8},
  {"icao":"OMAL","name":"Al Bateen Executive","city":"Abu Dhabi","country":"UAE","lat":24.4283,"lon":54.4581,"elev":16,"tz":"Asia/Dubai","longestRunway":10499,"freq":118.6},
  {"icao":"VAPO","name":"Pune International","city":"Pune","country":"India","lat":18.5814,"lon":73.9208,"elev":1943,"tz":"Asia/Kolkata","longestRunway":8661,"freq":118.7},
  {"icao":"VAGO","name":"Goa International","city":"Goa","country":"India","lat":15.3808,"lon":73.8311,"elev":186,"tz":"Asia/Kolkata","longestRunway":11258,"freq":118.2}
]
